[
    {
        "name": "Worlds of Fun",
        "category": "Activities",
        "characteristic": "Rides",
        "city": "Kansas City",
        "state": "Missouri",
        "id": 1001,
        "isFeatured": false,
        "isFavorite": false,
        "coordinates": {
            "latitude": 39.1766,
            "longitude": -94.4862
        },
        "description": "Worlds of Fun is a amusement park that is fun for all ages. It had roller coasters, arcade games, and lots of great food!",
        "imageName": "OceansOfFun"
    },
    {
        "name": "Oceans of Fun",
        "category": "Activities",
        "characteristic": "Water",
        "city": "Kansas City",
        "state": "Missouri",
        "id": 1002,
        "isFeatured": false,
        "isFavorite": false,
        "coordinates": {
            "latitude": 39.1766,
            "longitude": -94.4862
        },
        "description": "Oceans of Fun is a super fun water park in Missouri. It features many attractions including water based rides, wave pools, and lavy rivers.",
        "imageName": "WorldsOfFun"
    },
    {
        "name": "Kansas City Zoo",
        "category": "Activities",
        "characteristic": "Animals",
        "city": "Kansas City",
        "state": "Missouri",
        "id": 1003,
        "isFeatured": false,
        "isFavorite": false,
        "coordinates": {
            "latitude": 39.0069,
            "longitude": -94.5292
        },
        "description": "The Kansas City Zoo is a great place to take your family to see a variety of cool animals. Make sure you say hi to the Giraffes!",
        "imageName": "KansasCityZoo"
    },
    {
        "name": "Topeka Zoo",
        "category": "Activities",
        "characteristic": "Animals",
        "city": "Topeka",
        "state": "Kansas",
        "id": 1004,
        "isFeatured": false,
        "isFavorite": false,
        "coordinates": {
            "latitude": 39.0561,
            "longitude": -95.7269
        },
        "description": "The Topeka Zoo is a medium-sized Zoo in Topeka Kansas. It features many great animals and is good for people who want a less-crowded zoo.",
        "imageName": "TopekaZoo"
    },
    {
        "name": "Lego Land",
        "category": "Activities",
        "characteristic": "Amusement",
        "city": "Kansas City",
        "state": "Missouri",
        "id": 1005,
        "isFeatured": false,
        "isFavorite": false,
        "coordinates": {
            "latitude": 39.0821,
            "longitude": -94.5813
        },
        "description": "LegoLand is a Lego theme park. It features many attracions like a meticulouly built lego city, lego rides, a lego movie theater, and a station to build your own Lego contraptions! It is great place to take kids. ",
        "imageName": "LegoLand"
    },
    {
        "name": "BreakoutKC",
        "category": "Activities",
        "characteristic": "Mystery",
        "city": "Kansas City",
        "state": "Missouri",
        "id": 1006,
        "isFeatured": false,
        "isFavorite": false,
        "coordinates": {
            "latitude": 39.0821,
            "longitude": -94.5813
        },
        "description": "BreatoutKC has many mysterious escape rooms with varying difficulty. It is a great place to go for a good puzzle. ",
        "imageName": "BreakoutKC"
    },
    {
        "name": "Sea Life Kansas City",
        "category": "Activities",
        "characteristic": "Water",
        "city": "Kansas City",
        "state": "Missouri",
        "id": 1007,
        "isFeatured": false,
        "isFavorite": false,
        "coordinates": {
            "latitude": 39.1097,
            "longitude": -94.5854
        },
        "description": "Get transported to life underwater at Sea Life KC. Be ready to see cool aquatic animals that you have never even heard of!",
        "imageName": "SeaLife"
    },
    {
        "name": "Great Wolf Lodge",
        "category": "Activities",
        "characteristic": "Water",
        "city": "Kansas City",
        "state": "Missouri",
        "id": 1008,
        "isFeatured": false,
        "isFavorite": false,
        "coordinates": {
            "latitude": 39.1179,
            "longitude": -94.8166
        },
        "description": "At Great Wolf Lodge you and your family can enjoy a world class waterpark, mini golf, and many other attractions. You can also stay overnight and have another day of fun!",
        "imageName": "GreatWolfLodge"
    },
    {
        "name": "IFly",
        "category": "Activities",
        "characteristic": "Flying",
        "city": "Overland Park",
        "state": "Kansas",
        "id": 1009,
        "isFeatured": false,
        "isFavorite": false,
        "coordinates": {
            "latitude": 38.9303,
            "longitude": -94.6663
        },
        "description": " ",
        "imageName": "Ifly"
    },
    {
        "name": "Kansas City Speedway",
        "category": "Sports",
        "characteristic": "Racing",
        "city": "Kansas City",
        "state": "Missouri",
        "id": 1010,
        "isFeatured": false,
        "isFavorite": false,
        "coordinates": {
            "latitude": 39.1117,
            "longitude": -94.8276
        },
        "description": " ",
        "imageName": "KansasCitySpeedway"
    },
    {
        "name": "Sporting KC/Children's Mercy Park",
        "category": "Sports",
        "characteristic": "Soccer",
        "city": "Kansas City",
        "state": "Missouri",
        "id": 1011,
        "isFeatured": false,
        "isFavorite": false,
        "coordinates": {
            "latitude": 39.1216,
            "longitude": -94.8232
        },
        "description": " ",
        "imageName": "ChildrensMercyPark"
    },
    {
        "name": "Chiefs/Arrowhead Staduim",
        "category": "Sports",
        "characteristic": "Football",
        "city": "Kansas City",
        "state": "Missouri",
        "id": 1012,
        "isFeatured": false,
        "isFavorite": false,
        "coordinates": {
            "latitude": 39.0489,
            "longitude": -94.4839
        },
        "description": " ",
        "imageName": "ArrowheadStadium"
    },
    {
        "name": "Royals/Kauffman Stadium",
        "category": "Sports",
        "characteristic": "Baseball",
        "city": "Kansas City",
        "state": "Missouri",
        "id": 1013,
        "isFeatured": false,
        "isFavorite": false,
        "coordinates": {
            "latitude": 39.0517,
            "longitude": -94.4803
        },
        "description": " ",
        "imageName": "KauffmanStadium"
    },
    {
        "name": "Negro Baseball Hall of Fame",
        "category": "Sports",
        "characteristic": "Baseball",
        "city": "Kansas City",
        "state": "Missouri",
        "id": 1014,
        "isFeatured": false,
        "isFavorite": false,
        "coordinates": {
            "latitude": 39.0914,
            "longitude": -94.5627
        },
        "description": " ",
        "imageName": "NegroBaseballHallOfFame"
    },
    {
        "name": "Allen Fieldhouse",
        "category": "Sports",
        "characteristic": "Basketball",
        "city": "Lawrence",
        "state": "Kansas",
        "id": 1015,
        "isFeatured": false,
        "isFavorite": false,
        "coordinates": {
            "latitude": 38.9542,
            "longitude": -95.2528
        },
        "description": " ",
        "imageName": "AllenFieldhouse"
    },
    {
        "name": "Top Golf",
        "category": "Sports",
        "characteristic": "Golf",
        "city": "Overland Park",
        "state": "Kansas",
        "id": 1016,
        "isFeatured": false,
        "isFavorite": false,
        "coordinates": {
            "latitude": 38.9365,
            "longitude": -94.6482
        },
        "description": " ",
        "imageName": "TopGolf"
    },
    {
        "name": "American Jazz Museum",
        "category": "Museum",
        "characteristic": "Music",
        "city": "Kansas City",
        "state": "Missouri",
        "id": 1017,
        "isFeatured": false,
        "isFavorite": false,
        "coordinates": {
            "latitude": 39.0916,
            "longitude": -94.5627
        },
        "description": " ",
        "imageName": "AmericanJazzMuseum"
    },
    {
        "name": "WW1 Museum",
        "category": "Museum",
        "characteristic": "History",
        "city": "Kansas City",
        "state": "Missouri",
        "id": 1018,
        "isFeatured": true,
        "isFavorite": false,
        "coordinates": {
            "latitude": 39.0807,
            "longitude": -94.5861
        },
        "description": " ",
        "imageName": "WW1Museum"
    },
    {
        "name": "Nelson Atkins Museum",
        "category": "Museum",
        "characteristic": "Art",
        "city": "Kansas City",
        "state": "Missouri",
        "id": 1019,
        "isFeatured": false,
        "isFavorite": false,
        "coordinates": {
            "latitude": 39.0450,
            "longitude": -94.5809
        },
        "description": " ",
        "imageName": "NelsonAtkinsMuseum"
    },
    {
        "name": "Union Station",
        "category": "Museum",
        "characteristic": "Science",
        "city": "Kansas City",
        "state": "Missouri",
        "id": 1020,
        "isFeatured": false,
        "isFavorite": false,
        "coordinates": {
            "latitude": 39.0853,
            "longitude": -94.5856
        },
        "description": " ",
        "imageName": "UnionStation"
    },
    {
        "name": "Science City",
        "category": "Museum",
        "characteristic": "Science",
        "city": "Kansas City",
        "state": "Missouri",
        "id": 1021,
        "isFeatured": false,
        "isFavorite": false,
        "coordinates": {
            "latitude": 39.0853,
            "longitude": -94.5856
        },
        "description": " ",
        "imageName": "ScienceCity"
    },
    {
        "name": "Steamboat Arabia",
        "category": "Museum",
        "characteristic": "History",
        "city": "Kansas City",
        "state": "Missouri",
        "id": 1022,
        "isFeatured": false,
        "isFavorite": false,
        "coordinates": {
            "latitude": 39.1095,
            "longitude": -94.5814
        },
        "description": " ",
        "imageName": "SteamboatArabia"
    },
    {
        "name": "Museum at Prairiefire",
        "category": "Museum",
        "characteristic": "History",
        "city": "Overland Park",
        "state": "Kansas",
        "id": 1023,
        "isFeatured": false,
        "isFavorite": false,
        "coordinates": {
            "latitude": 38.8819,
            "longitude": -94.6521
        },
        "description": " ",
        "imageName": "MuseumAtPrairiefire"
    },
    {
        "name": "Money Museum",
        "category": "Museum",
        "characteristic": "Money",
        "city": "Kansas City",
        "state": "Missouri",
        "id": 1024,
        "isFeatured": false,
        "isFavorite": false,
        "coordinates": {
            "latitude": 39.1034,
            "longitude": -94.5809
        },
        "description": " ",
        "imageName": "MoneyMuseum"
    },
    {
        "name": "Boulevard Brewing Co",
        "category": "Food",
        "characteristic": "Beer",
        "city": "Kansas City",
        "state": "Missouri",
        "id": 1025,
        "isFeatured": false,
        "isFavorite": false,
        "coordinates": {
            "latitude": 39.0821,
            "longitude": -94.5967
        },
        "description": " ",
        "imageName": "BoulevardBrewingCo"
    },
    {
        "name": "Joes Barbaque",
        "category": "Food",
        "characteristic": "Barbecue",
        "city": "Leawood",
        "state": "Kansas",
        "id": 1026,
        "isFeatured": true,
        "isFavorite": false,
        "coordinates": {
            "latitude": 38.9152,
            "longitude": -94.6393
        },
        "description": " ",
        "imageName": "JoesBarbeque"
    },
    {
        "name": "City Market",
        "category": "Food",
        "characteristic": "Market",
        "city": "Kansas City",
        "state": "Missouri",
        "id": 1027,
        "isFeatured": false,
        "isFavorite": false,
        "coordinates": {
            "latitude": 39.1101,
            "longitude": -94.5818
        },
        "description": " ",
        "imageName": "CityMarket"
    },
    {
        "name": "Christopher Elbow Chocolates",
        "category": "Food",
        "characteristic": "Chocolate",
        "city": "Kansas City",
        "state": "Missouri",
        "id": 1028,
        "isFeatured": false,
        "isFavorite": false,
        "coordinates": {
            "latitude": 39.0909,
            "longitude": -94.5800
        },
        "description": " ",
        "imageName": "ChristopherElbowChocolates"
    },
    {
        "name": "Overland Park Farmers Market",
        "category": "Food",
        "characteristic": "Market",
        "city": "Overland Park",
        "state": "Kansas",
        "id": 1029,
        "isFeatured": false,
        "isFavorite": false,
        "coordinates": {
            "latitude": 38.9848,
            "longitude": -94.6704
        },
        "description": " ",
        "imageName": "OverlandParkFarmersMarket"
    },
    {
        "name": "Deanna Rose Farmstead",
        "category": "Nature",
        "characteristic": "Animals",
        "city": "Overland Park",
        "state": "Kansas",
        "id": 1030,
        "isFeatured": false,
        "isFavorite": false,
        "coordinates": {
            "latitude": 38.8777,
            "longitude": -94.7033
        },
        "description": " ",
        "imageName": "DeannaRoseFarmstead"
    },
    {
        "name": "Overland Park Arboretum & Botanical Gardens",
        "category": "Nature",
        "characteristic": "Garden",
        "city": "Overland Park",
        "state": "Kansas",
        "id": 1031,
        "isFeatured": false,
        "isFavorite": false,
        "coordinates": {
            "latitude": 38.7978,
            "longitude": -94.6910
        },
        "description": " ",
        "imageName": "OverlandParkArboretum"
    },
    {
        "name": "Lakeside Nature Center",
        "category": "Nature",
        "characteristic": "Garden",
        "city": "Kansas City",
        "state": "Missouri",
        "id": 1032,
        "isFeatured": false,
        "isFavorite": false,
        "coordinates": {
            "latitude": 38.9953,
            "longitude": -94.5319
        },
        "description": " ",
        "imageName": "LakesideNatureCenter"
    },
    {
        "name": "Rock City",
        "category": "Nature",
        "characteristic": "Rocks",
        "city": "Minneapolis",
        "state": "Kansas",
        "id": 1033,
        "isFeatured": false,
        "isFavorite": false,
        "coordinates": {
            "latitude": 39.9785,
            "longitude": -95.2994
        },
        "description": " ",
        "imageName": "RockCity"
    },
    {
        "name": "4-State Lookout (Kansas, Iowa, Nebraska, Missouri)",
        "category": "Nature",
        "characteristic": "History",
        "city": "White Cloud",
        "state": "Kansas",
        "id": 1034,
        "isFeatured": false,
        "isFavorite": false,
        "coordinates": {
            "latitude": 39.9738,
            "longitude": -95.2951
        },
        "description": " ",
        "imageName": "4-StateLookout"
    },
    {
        "name": "Elk River Hiking Trail",
        "category": "Nature",
        "characteristic": "History",
        "city": "Elk City",
        "state": "Kansas",
        "id": 1035,
        "isFeatured": false,
        "isFavorite": false,
        "coordinates": {
            "latitude":37.2892,
            "longitude": -95.91165
        },
        "description": " ",
        "imageName": "ElkRiverHikingTrail"
    },
    {
        "name": "Legends Mall",
        "category": "Shopping",
        "characteristic": "Outdoors",
        "city": "Kansas City",
        "state": "Missouri",
        "id": 1036,
        "isFeatured": false,
        "isFavorite": false,
        "coordinates": {
            "latitude": 39.1267,
            "longitude": -94.8260
        },
        "description": " ",
        "imageName": "LegendsMall"
    },
    {
        "name": "Oak Park Mall",
        "category": "Shopping",
        "characteristic": "Indoors",
        "city": "Overland Park",
        "state": "Kansas",
        "id": 1037,
        "isFeatured": false,
        "isFavorite": false,
        "coordinates": {
            "latitude": 38.9531,
            "longitude": -94.7196
        },
        "description": " ",
        "imageName": "OakParkMall"
    },
    {
        "name": "Country Club Plaza",
        "category": "Shopping",
        "characteristic": "Outdoors",
        "city": "Kansas City",
        "state": "Missouri",
        "id": 1038,
        "isFeatured": false,
        "isFavorite": false,
        "coordinates": {
            "latitude": 39.0420,
            "longitude": -94.5926
        },
        "description": " ",
        "imageName": "CountryClubPlaza"
    },
    {
        "name": "Crown Center",
        "category": "Shopping",
        "characteristic": "Entertainment",
        "city": "Kansas City",
        "state": "Missouri",
        "id": 1039,
        "isFeatured": false,
        "isFavorite": false,
        "coordinates": {
            "latitude": 39.0810,
            "longitude": -94.5816
        },
        "description": " ",
        "imageName": "CrownCenter"
    },
    {
        "name": "Kauffman Center",
        "category": "Performance",
        "characteristic": "Music",
        "city": "Kansas City",
        "state": "Missouri",
        "id": 1040,
        "isFeatured": false,
        "isFavorite": false,
        "coordinates": {
            "latitude": 39.0941,
            "longitude": -94.5876
        },
        "description": " ",
        "imageName": "KauffmanCenter"
    },
    {
        "name": "T-Mobile Center",
        "category": "Performance",
        "characteristic": "Music",
        "city": "Kansas City",
        "state": "Missouri",
        "id": 1041,
        "isFeatured": false,
        "isFavorite": false,
        "coordinates": {
            "latitude": 39.0975,
            "longitude": -94.5802
        },
        "description": " ",
        "imageName": "T-MobileCenter"
    },
    {
        "name": "Starlight Theater",
        "category": "Performance",
        "characteristic": "Theater",
        "city": "Kansas City",
        "state": "Missouri",
        "id": 1042,
        "isFeatured": false,
        "isFavorite": false,
        "coordinates": {
            "latitude": 39.0075,
            "longitude": -94.5328
        },
        "description": " ",
        "imageName": "StarlightTheater"
    },
    {
        "name": "TruckHenge",
        "category": "Attractions",
        "characteristic": "Trucks",
        "city": "Topeka",
        "state": "Kansas",
        "id": 1043,
        "isFeatured": true,
        "isFavorite": false,
        "coordinates": {
            "latitude": 39.0792,
            "longitude": -95.6018
        },
        "description": " ",
        "imageName": "TruckHenge"
    },
    {
        "name": "Oz Museum",
        "category": "Attractions",
        "characteristic": "Entertainment",
        "city": "Wamego",
        "state": "Kansas",
        "id": 1044,
        "isFeatured": false,
        "isFavorite": false,
        "coordinates": {
            "latitude": 39.2026,
            "longitude": -96.3054
        },
        "description": " ",
        "imageName": "OzMuseum"
    },
    {
        "name": "World's Largest Collections of Smallest Versions of Largest Things",
        "category": "Attractions",
        "characteristic": "Small_Things",
        "city": "Lucas",
        "state": "Kansas",
        "id": 1045,
        "isFeatured": false,
        "isFavorite": false,
        "coordinates": {
            "latitude": 39.2026,
            "longitude": -96.3054
        },
        "description": " ",
        "imageName": "World'sLargestCollections"
    },
    {
        "name": "Giant Van Gogh Painting",
        "category": "Attractions",
        "characteristic": "Big_Things",
        "city": "Goodland",
        "state": "Kansas",
        "id": 1046,
        "isFeatured": false,
        "isFavorite": false,
        "coordinates": {
            "latitude": 39.3508,
            "longitude": -101.7102
        },
        "description": " ",
        "imageName": "GiantVanGoghPainting"
    },
    {
        "name": "The Big Well",
        "category": "Attractions",
        "characteristic": "Big_Things",
        "city": "Greensburg",
        "state": "Kansas",
        "id": 1047,
        "isFeatured": false,
        "isFavorite": false,
        "coordinates": {
            "latitude": 37.6034,
            "longitude": -99.2944
        },
        "description": " ",
        "imageName": "TheBigWell"
    },
    {
        "name": "World's Largest Ball of Twine",
        "category": "Attractions",
        "characteristic": "Big_Things",
        "city": "Cawker City",
        "state": "Kansas",
        "id": 1048,
        "isFeatured": false,
        "isFavorite": false,
        "coordinates": {
            "latitude": 45.0963,
            "longitude": -94.4103
        },
        "description": " ",
        "imageName": "World'sLargestBallofTwine"
    },
    {
        "name": "World's Largest Czech Egg",
        "category": "Attractions",
        "characteristic": "Big_Things",
        "city": "Wilson",
        "state": "Kansas",
        "id": 1049,
        "isFeatured": false,
        "isFavorite": false,
        "coordinates": {
            "latitude": 38.8242,
            "longitude": -98.4727
        },
        "description": " ",
        "imageName": "World'sLargestCzechEgg"
    },
    {
        "name": "Worlds Largest Baseball",
        "category": "Attractions",
        "characteristic": "Big_Things",
        "city": "Muscotah",
        "state": "Kansas",
        "id": 1050,
        "isFeatured": false,
        "isFavorite": false,
        "coordinates": {
            "latitude": 39.5507,
            "longitude": -95.5213
        },
        "description": " ",
        "imageName": "WorldsLargestBaseball"
    }
]
